{
"type": "FeatureCollection",
"name": "Friedhoefe",
"crs": { "type": "name", "properties": { "name": "urn:ogc:def:crs:OGC:1.3:CRS84" } },
"features": [
{ "type": "Feature", "properties": { "NAME": "Friedhof Kinderhaus", "RECHTSWERT": 404622.0, "HOCHWERT": 5761836.0, "HOMEPAGE": "http:\/\/www.st-marien-und-st-josef.de\/orte-des-gemeindelebens\/friedhof-kinderhaus\/" }, "geometry": { "type": "Point", "coordinates": [ 7.61067259066906, 51.998979367344127 ] } },
{ "type": "Feature", "properties": { "NAME": "Friedhof Gelmer", "RECHTSWERT": 409415.0, "HOCHWERT": 5765222.0, "HOMEPAGE": "https:\/\/www.st-petronilla.de\/" }, "geometry": { "type": "Point", "coordinates": [ 7.679573657790812, 52.030217255427814 ] } },
{ "type": "Feature", "properties": { "NAME": "Friedhof Albachten", "RECHTSWERT": 398583.0, "HOCHWERT": 5753566.0, "HOMEPAGE": "https:\/\/www.stadt-muenster.de\/umwelt\/friedhoefe\/friedhof-albachten.html" }, "geometry": { "type": "Point", "coordinates": [ 7.5251777307725, 51.923578144955314 ] } },
{ "type": "Feature", "properties": { "NAME": "Friedhof Angelmodde - Am Hohen Ufer", "RECHTSWERT": 410107.0, "HOCHWERT": 5754227.0, "HOMEPAGE": "https:\/\/www.stadt-muenster.de\/umwelt\/friedhoefe\/friedhof-angelmodde-am-hohen-ufer.html" }, "geometry": { "type": "Point", "coordinates": [ 7.692538768258209, 51.931499756698592 ] } },
{ "type": "Feature", "properties": { "NAME": "Friedhof Nienberge", "RECHTSWERT": 401399.0, "HOCHWERT": 5761778.0, "HOMEPAGE": "https:\/\/www.liebfrauen-muenster.de\/" }, "geometry": { "type": "Point", "coordinates": [ 7.563757007708352, 51.997895062511041 ] } },
{ "type": "Feature", "properties": { "NAME": "Friedhof Mauritz", "RECHTSWERT": 407691.0, "HOCHWERT": 5757489.0, "HOMEPAGE": "https:\/\/www.sankt-mauritz.com\/themen\/sakramente\/beerdigung-trauerpastoral\/mauritz-friedhof" }, "geometry": { "type": "Point", "coordinates": [ 7.656533318446971, 51.960425016331357 ] } },
{ "type": "Feature", "properties": { "NAME": "Friedhof Handorf", "RECHTSWERT": 410811.0, "HOCHWERT": 5760423.0, "HOMEPAGE": "https:\/\/www.st-petronilla.de\/" }, "geometry": { "type": "Point", "coordinates": [ 7.701166584340389, 51.987307071997954 ] } },
{ "type": "Feature", "properties": { "NAME": "Friedhof Hohe Ward", "RECHTSWERT": 408274.0, "HOCHWERT": 5750261.0, "HOMEPAGE": "https:\/\/www.stadt-muenster.de\/umwelt\/friedhoefe\/friedhof-hohe-ward.html" }, "geometry": { "type": "Point", "coordinates": [ 7.666942383662191, 51.895551686980852 ] } },
{ "type": "Feature", "properties": { "NAME": "Neuer Jüdischer Friedhof", "RECHTSWERT": 408052.0, "HOCHWERT": 5750362.0, "HOMEPAGE": "http:\/\/www.jgms.de\/" }, "geometry": { "type": "Point", "coordinates": [ 7.66369005968562, 51.896422958714801 ] } },
{ "type": "Feature", "properties": { "NAME": "Friedhof Sprakel", "RECHTSWERT": 405542.0, "HOCHWERT": 5765752.0, "HOMEPAGE": "http:\/\/www.st-marien-und-st-josef.de\/orte-des-gemeindelebens\/friedhof-sprakel\/" }, "geometry": { "type": "Point", "coordinates": [ 7.622989183677296, 52.034334966377394 ] } },
{ "type": "Feature", "properties": { "NAME": "Ehemaliger Friedhof Albachten", "RECHTSWERT": 398318.0, "HOCHWERT": 5753752.0, "HOMEPAGE": "https:\/\/www.kirche-mswest.de\/friedhof-in-albachten\/" }, "geometry": { "type": "Point", "coordinates": [ 7.521270497560414, 51.925201591219498 ] } },
{ "type": "Feature", "properties": { "NAME": "Zentralfriedhof", "RECHTSWERT": 404417.0, "HOCHWERT": 5757300.0, "HOMEPAGE": "https:\/\/www.zentralfriedhof-muenster.de\/" }, "geometry": { "type": "Point", "coordinates": [ 7.608950977875224, 51.958173019031967 ] } },
{ "type": "Feature", "properties": { "NAME": "Friedhof Amelsbüren", "RECHTSWERT": 404294.0, "HOCHWERT": 5748706.0, "HOMEPAGE": "https:\/\/www.sankt-clemens-hiltrup.de\/kirchen-einrichtungen\/friedhoefe\/" }, "geometry": { "type": "Point", "coordinates": [ 7.60955035751277, 51.880905315529631 ] } },
{ "type": "Feature", "properties": { "NAME": "Friedhof Mecklenbeck", "RECHTSWERT": 401812.0, "HOCHWERT": 5755207.0, "HOMEPAGE": "https:\/\/www.kirche-mswest.de\/friedhof-in-mecklenbeck\/" }, "geometry": { "type": "Point", "coordinates": [ 7.571650052717462, 51.938906740546827 ] } },
{ "type": "Feature", "properties": { "NAME": "Friedhof Roxel", "RECHTSWERT": 399007.0, "HOCHWERT": 5756848.0, "HOMEPAGE": "https:\/\/www.kirche-mswest.de\/friedhof-in-roxel\/" }, "geometry": { "type": "Point", "coordinates": [ 7.530377674753196, 51.953154147516045 ] } },
{ "type": "Feature", "properties": { "NAME": "Friedhof Hiltrup", "RECHTSWERT": 406339.0, "HOCHWERT": 5751409.0, "HOMEPAGE": "https:\/\/www.sankt-clemens-hiltrup.de\/kirchen-einrichtungen\/friedhoefe\/" }, "geometry": { "type": "Point", "coordinates": [ 7.638517490730567, 51.905548720927186 ] } },
{ "type": "Feature", "properties": { "NAME": "Friedhof Angelmodde - Homannstraße", "RECHTSWERT": 410049.0, "HOCHWERT": 5753246.0, "HOMEPAGE": "https:\/\/www.stadt-muenster.de\/umwelt\/friedhoefe\/friedhof-angelmodde-homannstrasse.html" }, "geometry": { "type": "Point", "coordinates": [ 7.6919518215191, 51.922672446910795 ] } },
{ "type": "Feature", "properties": { "NAME": "Friedhof Nienberge", "RECHTSWERT": 401452.0, "HOCHWERT": 5761847.0, "HOMEPAGE": "https:\/\/www.stadt-muenster.de\/umwelt\/friedhoefe\/friedhof-nienberge.html" }, "geometry": { "type": "Point", "coordinates": [ 7.564508914987544, 51.998524652989971 ] } },
{ "type": "Feature", "properties": { "NAME": "Friedhof Angelmodde", "RECHTSWERT": 410494.0, "HOCHWERT": 5753285.0, "HOMEPAGE": "https:\/\/st-nikolaus-muenster.de\/" }, "geometry": { "type": "Point", "coordinates": [ 7.698410967216804, 51.923094727296473 ] } },
{ "type": "Feature", "properties": { "NAME": "Waldfriedhof Lauheide", "RECHTSWERT": 414403.0, "HOCHWERT": 5761949.0, "HOMEPAGE": "https:\/\/www.stadt-muenster.de\/umwelt\/friedhoefe\/waldfriedhof-lauheide.html" }, "geometry": { "type": "Point", "coordinates": [ 7.753081124502829, 52.001589187353581 ] } },
{ "type": "Feature", "properties": { "NAME": "Friedhof Wolbeck", "RECHTSWERT": 412182.0, "HOCHWERT": 5752947.0, "HOMEPAGE": "https:\/\/www.stadt-muenster.de\/umwelt\/friedhoefe\/friedhof-wolbeck.html" }, "geometry": { "type": "Point", "coordinates": [ 7.723037298861331, 51.920325318649397 ] } },
{ "type": "Feature", "properties": { "NAME": "Zentralfriedhof, Verwaltung", "RECHTSWERT": 404382.0, "HOCHWERT": 5757453.0, "HOMEPAGE": "https:\/\/www.zentralfriedhof-muenster.de\/" }, "geometry": { "type": "Point", "coordinates": [ 7.608399187005881, 51.959542221719218 ] } },
{ "type": "Feature", "properties": { "NAME": "Zentralfriedhof, Kapelle", "RECHTSWERT": 404400.0, "HOCHWERT": 5757476.0, "HOMEPAGE": "" }, "geometry": { "type": "Point", "coordinates": [ 7.608654669972014, 51.959752049318297 ] } },
{ "type": "Feature", "properties": { "NAME": "Zentralfriedhof, Leichenhalle", "RECHTSWERT": 404419.0, "HOCHWERT": 5757491.0, "HOMEPAGE": "" }, "geometry": { "type": "Point", "coordinates": [ 7.60892693063643, 51.959890141337553 ] } }
]
}
